{
	"info": {
		"content_version": "37" 
	},
	"shops": [
		{ 
			"id": "0",
			"address": "via Cavour 45-49 - Alessandria (AL)",
			"shop_type": "Pasticceria/Caffetteria",
			"city": "Alessandria (AL)",
			"lat": "44.91101921444756",
			"lon": "8.615453466404988",
			"name": "Mezzaro",
			"website": "http://www.mezzaro.eu/",
			"type": "0,1"
	},
	 { 
			"id": "1",
			"address": "Pza. Dante Alighieri, 22 - Casalnoceto (AL)",
			"shop_type": "Caffetteria",
			"city": "Casalnoceto (AL)",
			"lat": "44.91360464901114",
			"lon": "8.98177798346418",
			"name": "Bar Fortuna",
			"website": "",
			"type": "0"
		},
	 { 
			"id": "2",
			"address": "V.le Santuario 74b - Valenza (AL)",
			"shop_type": "Caffetteria",
			"city": "Valenza (AL)",
			"lat": "45.00717081452176",
			"lon": "8.63471421898311",
			"name": "Bar Pausa Caffè",
			"website": "https://www.facebook.com/checcoffee/",
			"type": "0"
		},
	 { 
			"id": "3",
			"address": "Via Verdi 24 - Aprilia (Roma)",
			"shop_type": "Caffetteria/Torrefazione",
			"city": "Aprilia (Roma)",
			"lat": "41.590552056503654",
			"lon": "12.65478449925375",
			"name": "Caos Caffè",
			"website": "https://caoscaffe.com/",
			"type": "0,1"
		}, { 
			"id": "4",
			"address": "Via Piero Gobetti, 64 (AR)",
			"shop_type": "Caffetteria",
			"city": "Arezzo (AR)",
			"lat": "43.45959387132391",
			"lon": "11.836275576564836",
			"name": "Caffè River",
			"website": "https://www.cafferiver.com",
			"type": "0,1"
		}, { 
			"id": "5",
			"address": "Corso Giuseppe Mazzini, 225 (AP)",
			"shop_type": "Caffetteria/Torrefazione",
			"city": "Ascoli Piceno (AP)",
			"lat": "42.85508455386302",
			"lon": "13.578044580804804",
			"name": "Tama Caffè",
			"website": "https://www.tamacaffe.it",
			"type": "0,1"
		}, { 
			"id": "6",
			"address": "Via Milano, 47 Bolzano (BZ)",
			"shop_type": "Caffetteria",
			"city": "Bolzano/Bozen (BZ)",
			"lat": "46.489818785039695",
			"lon": "11.335810949148842",
			"name": "Laboratorio Espresso",
			"website": "https://www.laboratorioespressobz.it/",
			"type": "0"
		}, { 
			"id": "7",
			"address": "Via Cognetti, 52 (BA)",
			"shop_type": "Caffetteria",
			"city": "Bari (BA)",
			"lat": "41.123415044152694",
			"lon": "16.87558483532022",
			"name": "La Briocheria",
			"website": "https://www.facebook.com/LaBriocheria",
			"type": "0"
		}, { 
			"id": "8",
			"address": "Via Cognetti, 17/19 (BA)",
			"shop_type": "Caffetteria/Torrefazione",
			"city": "Bari (BA)",
			"lat": "41.12313843485236",
			"lon": "16.873234509782662",
			"name": "Caffè Cognetti",
			"website": "https://www.caffecognetti.com/shop/caffe/specialtycoffee/",
			"type": "0,1"
		}, { 
			"id": "9",
			"address": "Piazza V. Emanuele II, 38 - Giovinazzo (BA)",
			"shop_type": "Caffetteria",
			"city": "Giovinazzo (BA)",
			"lat": "41.187699",
			"lon": "16.671018",
			"name": "Vecchio Caffè",
			"website": "https://www.instagram.com/vecchio___caffe/",
			"type": "0"
		},
 { 
			"id": "10",
			"address": "Via Piazza Castello, 16 (BL)",
			"shop_type": "Caffetteria",
			"city": "Belluno (BL)",
			"lat": "46.13886913808987",
			"lon": "12.216457457075172",
			"name": "Black Soul",
			"website": "https://www.instagram.com/blacksoulbelluno/",
			"type": "0"
		},
 { 
			"id": "11",
			"address": "Via Colleoni, 18 (BG)",
			"shop_type": "Caffetteria/Torrefazione",
			"city": "Bergamo (BG)",
			"lat": "45.70471247386561",
			"lon": "9.661973210909803",
			"name": "Bugan Coffee Lab - Città Alta",
			"website": "https://bugancoffeelab.com/",
			"type": "0,1"
		},
 { 
			"id": "12",
			"address": "Via G. Quarenghi, 32 (BG)",
			"shop_type": "Caffetteria/Torrefazione",
			"city": "Bergamo (BG)",
			"lat": "45.6912649850647",
			"lon": "9.666912477745313",
			"name": "Bugan Coffee Lab - Via Quarenghi",
			"website": "https://bugancoffeelab.com/",
			"type": "0,1"
		},
 { 
			"id": "13",
			"address": "Via Galliera 34d (BO)",
			"shop_type": "Panificio/Torrefazione",
			"city": "Bologna (BO)",
			"lat": "44.50094979021914",
			"lon": "11.343909595102387",
			"name": "Forno Brisa",
			"website": "https://www.fornobrisa.it/content/25-nostri-caffe",
			"type": "0,1"
		},
 { 
			"id": "14",
			"address": "Via S. Felice, 91A (BO)",
			"shop_type": "Panificio/Torrefazione",
			"city": "Bologna (BO)",
			"lat": "44.4980664823937",
			"lon": "11.33401483304387",
			"name": "Forno Brisa",
			"website": "https://www.fornobrisa.it/content/25-nostri-caffe",
			"type": "0"
		},
 { 
			"id": "15",
			"address": "Via Castiglione, 43 (BO)",
			"shop_type": "Panificio/Torrefazione",
			"city": "Bologna (BO)",
			"lat": "44.48918878979112",
			"lon": "11.349249780024369",
			"name": "Forno Brisa",
			"website": "https://www.fornobrisa.it/content/25-nostri-caffe",
			"type": "0"
		},
 { 
			"id": "16",
			"address": "Via G. Oberdan, 10/d (BO)",
			"shop_type": "Caffetteria",
			"city": "Bologna (BO)",
			"lat": "44.49550564385255",
			"lon": "11.346708312307104",
			"name": "Caffè Terzi",
			"website": "https://caffeterzi.shop/",
			"type": "0,1"
		},
 { 
			"id": "17",
			"address": "Via Barberia, 34 (BO)",
			"shop_type": "Caffetteria",
			"city": "Bologna (BO)",
			"lat": "44.4932697373065",
			"lon": "11.3361598342708",
			"name": "Lampadina Caffè",
			"website": "https://lampadinabologna.it/",
			"type": "0"
		},
 { 
			"id": "18",
			"address": "via Gramsci 6 (BS)",
			"shop_type": "Caffetteria",
			"city": "Brescia (BS)",
			"lat": "45.5367494293564",
			"lon": "10.219503718429056",
			"name": "Caffè Gramsci",
			"website": "https://cafegramsci.it/our-menu/",
			"type": "0"
		},
 { 
			"id": "19",
			"address": "Via Corsica, 112a (BS)",
			"shop_type": "Caffetteria",
			"city": "Brescia (BS)",
			"lat": "45.52787925076522",
			"lon": "10.205668549831776",
			"name": "Cecchi Backery",
			"website": "https://www.checchicafe.com/",
			"type": "0"
		},
 { 
			"id": "21",
			"address": "Corsetto Sant’Agata, 27/a (BS)",
			"shop_type": "Caffetteria",
			"city": "Brescia (BS)",
			"lat": "45.53919505691123",
			"lon": "10.218595222268549",
			"name": "Così è",
			"website": "https://cosi-e-brunch-restaurant.business.site/?utm_source=gmb&utm_medium=referral",
			"type": "0"
		},
 { 
			"id": "22",
			"address": "Corso Martiri della Libertà, 36 (BS)",
			"shop_type": "Caffetteria",
			"city": "Brescia (BS)",
			"lat": "45.53714115881179",
			"lon": "10.214994445946804",
			"name": "Estratto",
			"website": "https://www.instagram.com/estrattobrescia/",
			"type": "0"
		},
 { 
			"id": "23",
			"address": "Via F. Porcellaga, 28 (BS)",
			"shop_type": "Caffetteria/Torrefazione",
			"city": "Brescia (BS)",
			"lat": "45.53830126082331",
			"lon": "10.217386734305851",
			"name": "Tostato",
			"website": "https://tostato.cafe/",
			"type": "0,1"
		},
 { 
			"id": "24",
			"address": "Via Isernia, 23, Campobasso (CB)",
			"shop_type": "Caffetteria/Torrefazione",
			"city": "Campobasso (CB)",
			"lat": "41.56148562390397",
			"lon": "14.660702310893813",
			"name": "Anima Caffè",
			"website": "https://animacaffetorrefazione.business.site/?utm_source=gmb&utm_medium=referral",
			"type": "0,1"
		},
 { 
			"id": "25",
			"address": "Via Nicoló Biondo, 1 Carpi (MO)",
			"shop_type": "Caffetteria",
			"city": "Carpi (MO)",
			"lat": "44.775970651784775",
			"lon": "10.884822077926628",
			"name": "B.Officina Carpi",
			"website": "https://b-officina.com/",
			"type": "0,1"
		},
 { 
			"id": "26",
			"address": "Via Caprera, 3 (CA)",
			"shop_type": "Caffeteria",
			"city": "Cagliari (CA)",
			"lat": "39.21808281576149",
			"lon": "9.108327228016718",
			"name": "Caffè dell’Arte Specialty Coffee",
			"website": "https://www.caffedellartecagliari.com/",
			"type": "0"
		},
 { 
			"id": "27",
			"address": "Via Garibaldi,367 - Zafferana Etnea (CT)",
			"shop_type": "Caffetteria/Torrefazione",
			"city": "Zafferana Etnea (CT)",
			"lat": "37.69360023131974",
			"lon": "15.106620014479416",
			"name": "Etna Roaster",
			"website": "https://etnaroaster.com/index/it-IT",
			"type": "0,1"
		},
 { 
			"id": "28",
			"address": "Via della libertà 64 - Ortona (CH)",
			"shop_type": "Caffetteria/Torrefazione",
			"city": "Ortona (CH)",
			"lat": "42.350348462097486",
			"lon": "14.402743682207575",
			"name": "Rossopepe Caffetteria Artigianale",
			"website": "https://www.instagram.com/rossopepeortona/",
			"type": "0,1"
		},
 { 
			"id": "29",
			"address": "Via Armando Diaz, 16 (CO)",
			"shop_type": "Caffetteria",
			"city": "Como (CO)",
			"lat": "45.810571467848035",
			"lon": "9.080957399392116",
			"name": "Cucinantica",
			"website": "https://cucinantica.com/15-caffe",
			"type": "0"
		},
 { 
			"id": "30",
			"address": "Piazza Garibaldi, 34 (CR)",
			"shop_type": "Caffetteria",
			"city": "Crema (CR)",
			"lat": "45.3636639180565",
			"lon": "9.692968303612735",
			"name": "16.99",
			"website": "https://www.1699crema.it/",
			"type": "0"
		},
 { 
			"id": "31",
			"address": "Viale Po, 15 (CR)",
			"shop_type": "Caffetteria",
			"city": "Cremona (CR)",
			"lat": "45.13260657088363",
			"lon": "10.015695701318204",
			"name": "Loom",
			"website": "https://www.instagram.com/loom_cremona/",
			"type": "0"
		},
 { 
			"id": "32",
			"address": "Via Pollenzo,6 - Bra (CN)",
			"shop_type": "Caffetteria",
			"city": "Bra (CN)",
			"lat": "44.695152512984315",
			"lon": "7.855398114698156",
			"name": "La Bottega delle Delizie",
			"website": "https://www.instagram.com/bottegadelledelizie/?igshid=7sja8jvafn4r",
			"type": "0"
		},
 { 
			"id": "33",
			"address": "Piazza Trieste, 1/2/3 - Dicomano   (FI)",
			"shop_type": "Caffetteria",
			"city": "Dicomano (FI)",
			"lat": "43.89104995667326",
			"lon": "11.523738614671508",
			"name": "Caffè GrandAngolo",
			"website": "https://www.instagram.com/caffegrandangolo/",
			"type": "0"
		},
 { 
			"id": "34",
			"address": "Piazza Mercato, 29 - Domodossola (VB)",
			"shop_type": "Gelateria e Specialty",
			"city": "Domodossola (VB)",
			"lat": "46.11641777159444",
			"lon": "8.29210986686403",
			"name": "Sensolato",
			"website": "https://www.instagram.com/sensolato/",
			"type": "0"
		},
 { 
			"id": "35",
			"address": "Via Faleria conc.34/B, Porto Sant’Elpidio (FM)",
			"shop_type": "Chalet mare/Caffetteria",
			"city": "Porto Sant’Elpidio - Fermo (FM)",
			"lat": "43.253536920272374",
			"lon": "13.76532907840949",
			"name": "Controvento",
			"website": "https://www.instagram.com/controventopse/",
			"type": "0"
		},
 { 
			"id": "36",
			"address": "Via Don Leonardo Piciotti 24, SP239 Fermana-Falerienze, Rapagnano FM",
			"shop_type": "Caffetteria",
			"city": "Fermana Falerienze Rapagnano (FM)",
			"lat": "43.15822731073785",
			"lon": "13.633680783960372",
			"name": "Nero Espresso",
			"website": "https://www.neroespresso.it/",
			"type": "0"
		},
 { 
			"id": "37",
			"address": "Via Piave, 5 - Altidona (FM)",
			"shop_type": "Caffetteria",
			"city": "Altidona (FM)",
			"lat": "43.099433688750196",
			"lon": "13.814534609091664",
			"name": "Perfero Caffè",
			"website": "https://www.instagram.com/perferocaffe/",
			"type": "1"
		},
 { 
			"id": "38",
			"address": "Via delle Oche, 5 (FI)",
			"shop_type": "Caffetteria",
			"city": "Firenze (FI)",
			"lat": "43.77232620740703",
			"lon": "11.256992591918687",
			"name": "Ben Caffè",
			"website": "https://www.instagram.com/ben_caffe/",
			"type": "0"
		},
 { 
			"id": "39",
			"address": "Via dè Neri, 32/r (FI)",
			"shop_type": "Caffetteria/Torrefazione",
			"city": "Firenze (FI)",
			"lat": "43.76914940104489",
			"lon": "11.261670334791255",
			"name": "Ditta Artigianale",
			"website": "https://www.dittaartigianale.it",
			"type": "0,1"
		},
 { 
			"id": "40",
			"address": "Via dello Sprone, 5/r (FI)",
			"shop_type": "Caffetteria/Torrefazione",
			"city": "Firenze (FI)",
			"lat": "43.7678397870791",
			"lon": "11.250900891494824",
			"name": "Ditta Artigianale - Via dello Sprone",
			"website": "https://www.dittaartigianale.it",
			"type": "0"
		},
 { 
			"id": "41",
			"address": "Via Carducci, 4 (FI)",
			"shop_type": "Caffetteria/Torrefazione",
			"city": "Firenze (FI)",
			"lat": "43.771911865483474",
			"lon": "11.267035664801138",
			"name": "Ditta Artigianale - Via Carducci",
			"website": "https://www.dittaartigianale.it",
			"type": "0"
		},
 { 
			"id": "42",
			"address": "Via Mannelli, 19/r (FI)",
			"shop_type": "Caffetteria",
			"city": "Firenze (FI)",
			"lat": "43.77334440972559",
			"lon": "11.28005962260595",
			"name": "Emmeti",
			"website": "https://caffetteriaemmeti.com/",
			"type": "0"
		},
 { 
			"id": "43",
			"address": "Via della Mattonaia, 24r (FI)",
			"shop_type": "Caffetteria",
			"city": "Firenze (FI)",
			"lat": "43.77153416271362",
			"lon": "11.26823272075468",
			"name": "Coffee Mantra",
			"website": "https://www.instagram.com/coffeemantrafirenze/",
			"type": "0"
		},
 { 
			"id": "44",
			"address": "Lungarno Le Grazie, 18 (FI)",
			"shop_type": "Caffetteria",
			"city": "Firenze (FI)",
			"lat": "43.767105260561706",
			"lon": "11.260294861231351",
			"name": "Melaleuca",
			"website": "https://www.instagram.com/melaleuca.florence/",
			"type": "0"
		},
 { 
			"id": "45",
			"address": "Via Vincenzo Gioberti, 51/r (FI)",
			"shop_type": "Caffetteria",
			"city": "Firenze (FI)",
			"lat": "43.770372509013065",
			"lon": "11.27577272075457",
			"name": "Caffetteria Piansa Gioberti",
			"website": "https://www.instagram.com/caffetteriapiansagioberti/",
			"type": "0,1"
		},
 { 
			"id": "46",
			"address": "Via de’ Ginori, 58 (FI)",
			"shop_type": "Caffetteria",
			"city": "Firenze (FI)",
			"lat": "43.777246711122814",
			"lon": "11.256643880277963",
			"name": "SimBIOsi Coffee",
			"website": "https://www.instagram.com/simbiosicoffee/",
			"type": "0"
		},
 { 
			"id": "47",
			"address": "Via Camillo Versari, 2 (FC)",
			"shop_type": "Caffetteria",
			"city": "Forlì (FC)",
			"lat": "44.218443920285615",
			"lon": "12.041581474205408",
			"name": "Gardelli Specialty Coffees",
			"website": "https://shop.gardellicoffee.com/",
			"type": "0,1"
		},
 { 
			"id": "48",
			"address": "Via Faliero Vezzani, 60 (GE)",
			"shop_type": "Caffetteria/Torrefazione",
			"city": "Genova (GE)",
			"lat": "44.43931340507325",
			"lon": "8.903239556398974",
			"name": "Tazze Pazze",
			"website": "https://www.tazzepazze.com/",
			"type": "0,1"
		},
 { 
			"id": "49",
			"address": "Piazza Cinque Lampadi, 71R (GE)",
			"shop_type": "Caffetteria/Torrefazione",
			"city": "Genova (GE)",
			"lat": "44.41140483093234",
			"lon": "8.942189305760182",
			"name": "Tazze Pazze Caffetteria Gourmet",
			"website": "https://www.tazzepazze.com/",
			"type": "0"
		},
 { 
			"id": "50",
			"address": "Piazza Fabbrini, 21 (GR)",
			"shop_type": "Caffetteria",
			"city": "Grosseto (GE)",
			"lat": "42.765118456288555",
			"lon": "11.120320022573164",
			"name": "Bristol Caffè",
			"website": "",
			"type": "0"
		},
 { 
			"id": "51",
			"address": "Via Italo Balbo, 147",
			"shop_type": "Caffetteria",
			"city": "Itri (LT)",
			"lat": "41.290012516328495",
			"lon": "13.523586405331317",
			"name": "Bix Caffè",
			"website": "https://www.instagram.com/bixcafe_coffeehouse/",
			"type": "0"
		},
 { 
			"id": "52",
			"address": "Viale dellla Vittoria, 93/C",
			"shop_type": "Caffetteria",
			"city": "Jesi (AN)",
			"lat": "43.521746253078874",
			"lon": "13.239427578231922",
			"name": "Gara",
			"website": "https://www.facebook.com/garacaffetteria",
			"type": "0"
		},
 { 
			"id": "53",
			"address": "Pza. L. Ariosto, 35 (LE)",
			"shop_type": "Caffetteria",
			"city": "Lecce (LE)",
			"lat": "40.36867926081813",
			"lon": "18.193620257336594",
			"name": "Chantilly",
			"website": "",
			"type": "0"
		},
 { 
			"id": "54",
			"address": "Piazza Attias, 33 (LI)",
			"shop_type": "Caffetteria",
			"city": "Livorno (LI)",
			"lat": "43.54437093067927",
			"lon": "10.315051370869458",
			"name": "Coffee Square",
			"website": "https://www.instagram.com/coffeesquare33/",
			"type": "0"
		},
 { 
			"id": "55",
			"address": "Via Giovanni Marradi, 147 (LI)",
			"shop_type": "Caffetteria",
			"city": "Livorno (LI)",
			"lat": "43.54273709434863",
			"lon": "10.315043674716273",
			"name": "Drupa Coffee and Spirits",
			"website": "https://instagram.com/drupa_coffee_and_spirits?utm_medium=copy_link",
			"type": "0"
		},
 { 
			"id": "56",
			"address": "Via XX settembre,39 (MN)",
			"shop_type": "Caffetteria",
			"city": "Mantova (MN)",
			"lat": "45.15450201447646",
			"lon": "10.793834296166917",
			"name": "Sketch",
			"website": "",
			"type": "0"
		},
 { 
			"id": "57",
			"address": "Viale Marina, 127 (MS)",
			"shop_type": "Caffetteria",
			"city": "Massa (MS)",
			"lat": "43.98708773390523",
			"lon": "10.149099676049094",
			"name": "Caffetteria Sabrina",
			"website": "",
			"type": "0"
		},
 { 
			"id": "58",
			"address": "Via Astesani, 15 (MI)",
			"shop_type": "Caffetteria",
			"city": "Milano (MI)",
			"lat": "45.51728999064178",
			"lon": "9.171501732453825",
			"name": "Bar Affori",
			"website": "https://bar-affori.business.site/",
			"type": "0"
		},
 { 
			"id": "59",
			"address": "Via Rembrandt, 12 (MI)",
			"shop_type": "Caffetteria",
			"city": "Milano (MI)",
			"lat": "45.467724085561784",
			"lon": "9.138877517108527",
			"name": "Il Cafetero",
			"website": "https://www.instagram.com/il_cafetero/",
			"type": "0"
		},
 { 
			"id": "60",
			"address": "Via Solferino, 27 (MI)",
			"shop_type": "Caffetteria/Torrefazione",
			"city": "Milano (MI)",
			"lat": "45.47877131190878",
			"lon": "9.189418356519607",
			"name": "Cafezal",
			"website": "https://cafezal.it/caffe/",
			"type": "0,1"
		},
 { 
			"id": "61",
			"address": "Piazza S. Fedele, 2 (MI)",
			"shop_type": "Caffetteria",
			"city": "Milano (MI)",
			"lat": "45.466106823328",
			"lon": "9.191049650479858",
			"name": "Lavazza Coffee Design",
			"website": "https://www.lavazza.it/it/chi-siamo/stores/flagshipstore.html",
			"type": "0,1"
		},
 { 
			"id": "62",
			"address": "Via G Cena, 21 (MI)",
			"shop_type": "Caffetteria/Gelateria/Dolci",
			"city": "Milano (MI)",
			"lat": "45.460854430717674",
			"lon": "9.219926630067487",
			"name": "Cortinovis dolci e gelati",
			"website": "https://www.instagram.com/pasticceriacortinovis/",
			"type": "0"
		},
 { 
			"id": "63",
			"address": "Staz. metro Piazzale Medaglie D’oro (MI)",
			"shop_type": "Caffetteria",
			"city": "Milano (MI)",
			"lat": "45.45209709509855",
			"lon": "9.202958217108023",
			"name": "Kōhī Tokyo 1982",
			"website": "http://kohi.coffee/",
			"type": "0"
		},
 { 
			"id": "64",
			"address": "Via Francesco Guicciardini, 3 (MI)",
			"shop_type": "Caffetteria",
			"city": "Milano (MI)",
			"lat": "45.46724941680122",
			"lon": "9.209046190123958",
			"name": "Loste Caffè",
			"website": "https://lostecafe.com/",
			"type": "0"
		},
 { 
			"id": "65",
			"address": "Via de Amicis, 7 (MI)",
			"shop_type": "Dolci e Caffetteria",
			"city": "Milano (MI)",
			"lat": "45.45744938906891",
			"lon": "9.180708103615913",
			"name": "Mascherpa tiramisù + coffee",
			"website": "https://mascherpatiramisu.com/",
			"type": "0"
		},
 { 
			"id": "66",
			"address": "Piazzale Medaglie d’Oro, 3 (MI)",
			"shop_type": "Caffetteria/Torrefazione",
			"city": "Milano (MI)",
			"lat": "45.452362557846435",
			"lon": "9.203725912872246",
			"name": "Milano Roastery",
			"website": "https://www.instagram.com/milanoroastery/",
			"type": "0,1"
		},
 { 
			"id": "67",
			"address": "Corso Italia, 14 (MI)",
			"shop_type": "Caffetteria",
			"city": "Milano (MI)",
			"lat": "45.45890970215964",
			"lon": "9.18800813954162",
			"name": "Nicol",
			"website": "https://www.instagram.com/barnicol.milano/",
			"type": "0"
		},
 { 
			"id": "68",
			"address": "Via Caminadella, 15 (MI)",
			"shop_type": "Caffetteria",
			"city": "Milano (MI)",
			"lat": "45.460073585794746",
			"lon": "9.177118503616008",
			"name": "Nowhere - Coffee & Community",
			"website": "https://www.instagram.com/nowherecafe.milano/",
			"type": "0"
		},
 { 
			"id": "69",
			"address": "Via Gerolamo Turroni, 2 (MI)",
			"shop_type": "Caffetteria",
			"city": "Milano (MI)",
			"lat": "45.46704197116296",
			"lon": "9.22306906499062",
			"name": "O|nest",
			"website": "https://www.onestmilano.com/",
			"type": "0"
		},
 { 
			"id": "70",
			"address": "Via Broggi, 15 (MI)",
			"shop_type": "Caffetteria",
			"city": "Milano (MI)",
			"lat": "45.477877791262266",
			"lon": "9.211661978483344",
			"name": "Orsonero Coffee",
			"website": "https://www.instagram.com/orsonerocoffee/",
			"type": "0"
		},
 { 
			"id": "71",
			"address": "Via Melzo, 22 (MI)",
			"shop_type": "Dolci e Caffetteria",
			"city": "Milano (MI)",
			"lat": "45.47404568336264",
			"lon": "9.209808924513984",
			"name": "Quattro Quarti Torte",
			"website": "https://www.instagram.com/quattroquartitorte/",
			"type": "0"
		},
 { 
			"id": "72",
			"address": "Via Cordusio, 1 (MI)",
			"shop_type": "Caffetteria",
			"city": "Milano (MI)",
			"lat": "45.46507557431273",
			"lon": "9.186505195677777",
			"name": "Starbucks Reserve",
			"website": "https://www.starbucksreserve.com/en-us/locations/milano",
			"type": "0,1"
		},
 { 
			"id": "73",
			"address": "Via Teodosio, 44 (MI)",
			"shop_type": "Caffetteria/Gelateria",
			"city": "Milano (MI)",
			"lat": "45.48555748225418",
			"lon": "9.230454947796359",
			"name": "Tra le Righe - Milano",
			"website": "https://www.instagram.com/tralerighemilano/",
			"type": "0"
		},
 { 
			"id": "74",
			"address": "Via Fontana, 1",
			"shop_type": "Caffetteria",
			"city": "Vignola (MO)",
			"lat": "44.477908549919846",
			"lon": "11.010860208603887",
			"name": "Caffè Terzi - Vignola",
			"website": "http://www.caffeterzi.it/caffe-terzi/",
			"type": "0"
		},
 { 
			"id": "75",
			"address": "Corso Canalchiaro, 136/a (MO)",
			"shop_type": "Caffetteria",
			"city": "Modena (MO)",
			"lat": "44.643990546131924",
			"lon": "10.92262418215795",
			"name": "Menomoka Coffee & More",
			"website": "https://www.facebook.com/menomoka",
			"type": "0"
		},
 { 
			"id": "76",
			"address": "Via Fratelli Rosselli, 78-80 (NA)",
			"shop_type": "Caffetteria",
			"city": "Napoli (NA)",
			"lat": "40.88720444303676",
			"lon": "14.26899960486265",
			"name": "Gran Caffè Secondigliano",
			"website": "https://m.facebook.com/grancaffesecondigliano/",
			"type": "0"
		},
 { 
			"id": "77",
			"address": "Via g. Bernini 64a (NA)",
			"shop_type": "Caffetteria",
			"city": "Napoli (NA)",
			"lat": "40.84561273348406",
			"lon": "14.232319985738165",
			"name": "VentiMetriQuadri",
			"website": "https://www.instagram.com/ventimetriquadrispecialtycoffe/",
			"type": "0"
		},
 { 
			"id": "78",
			"address": "Prato della Valle, 2 (PD)",
			"shop_type": "Caffetteria/Torrefazione",
			"city": "Padova (PD)",
			"lat": "45.40034464354854",
			"lon": "11.87666702636282",
			"name": "Diemme",
			"website": "https://www.facebook.com/caffediemmeitalianattitudePadova/",
			"type": "0,1"
		},
 { 
			"id": "79",
			"address": "Via Michele Cipolla, 85 (PA)",
			"shop_type": "Caffetteria",
			"city": "Palermo (PA)",
			"lat": "38.11029918875249",
			"lon": "13.372187699147917",
			"name": "Bar Vabres",
			"website": "https://www.instagram.com/barvabres/",
			"type": "0"
		},
 { 
			"id": "80",
			"address": "Piazzale del Fante, 54 (PA)",
			"shop_type": "Caffetteria/Torrefazione",
			"city": "Palermo (PA)",
			"lat": "38.148281539430286",
			"lon": "13.341683772697563",
			"name": "Histo Caffè",
			"website": "https://www.instagram.com/histocaffe/",
			"type": "0,1"
		},
 { 
			"id": "81",
			"address": "Via Villaermosa, 9 (PA)",
			"shop_type": "Caffetteria",
			"city": "Palermo (PA)",
			"lat": "38.12299771035693",
			"lon": "13.361438763802452",
			"name": "Rizzuto",
			"website": "https://www.instagram.com/caffetteriarizzuto/",
			"type": "0"
		},
 { 
			"id": "82",
			"address": "Via A. Manzoni, 174",
			"shop_type": "Caffetteria",
			"city": "Ponte San Giovanni (PG)",
			"lat": "43.09187343894961",
			"lon": "12.438097654127986",
			"name": "Luca",
			"website": "https://www.instagram.com/torrefazione_primocrack/",
			"type": "0"
		},
 { 
			"id": "83",
			"address": "S.S. Adriatica 16",
			"shop_type": "Caffetteria",
			"city": "Pesaro (PU)",
			"lat": "43.910662086192886",
			"lon": "12.893333901518291",
			"name": "48 Famiglia Domenicucci",
			"website": "https://www.instagram.com/matteo_domenicucci/",
			"type": "0"
		},
 { 
			"id": "84",
			"address": "Corso italia, 99",
			"shop_type": "Caffetteria",
			"city": "Piombino (LI)",
			"lat": "42.92573454420823",
			"lon": "10.529370266757835",
			"name": "Caffetteria del Corso",
			"website": "",
			"type": "0"
		},
 { 
			"id": "85",
			"address": "Via Corsica, 8 (PI)",
			"shop_type": "Caffetteria",
			"city": "Pisa (PI)",
			"lat": "43.719939097430895",
			"lon": "10.399645459378513",
			"name": "Caffè dei Cavalieri",
			"website": "https://caffe-dei-cavalieri-pisa-specialty-coffee-shop.business.site/",
			"type": "0"
		},
 { 
			"id": "86",
			"address": "Via Santa Maria, 30 (PI)",
			"shop_type": "Caffetteria",
			"city": "Pisa (PI)",
			"lat": "43.71865243766787",
			"lon": "10.39772876678368",
			"name": "Filter Coffee Lab",
			"website": "https://www.instagram.com/filtercoffeelab/",
			"type": "0"
		},
 { 
			"id": "87",
			"address": "Via Fonda di Vicofaro 6/8 (PT)",
			"shop_type": "Caffetteria ed Eventi",
			"city": "Pistoia (PT)",
			"lat": "43.926524060326386",
			"lon": "10.897173303564815",
			"name": "Loft68",
			"website": "https://loft68.it/",
			"type": "0"
		},
 { 
			"id": "88",
			"address": "Via Sacra, 44 (NA)",
			"shop_type": "Caffetteria/Torrefazione",
			"city": "Pompei (NA)",
			"lat": "40.74676394572733",
			"lon": "14.501367209017069",
			"name": "Campana Caffè",
			"website": "https://www.campanacaffe.com/campana_caffe_specialty",
			"type": "0,1"
		},
 { 
			"id": "89",
			"address": "Via Carducci, 125 (RG)",
			"shop_type": "Caffetteria",
			"city": "Ragusa (RG)",
			"lat": "36.92035072795533",
			"lon": "14.723395966574973",
			"name": "Lorefice Fiori Cafè",
			"website": "https://www.instagram.com/loreficefioricafe/?igshid=6451zsk623f8",
			"type": "0"
		},
 { 
			"id": "90",
			"address": "V. Don G. Minzoni, 54 Sartancangelo di Romagna (RN)",
			"shop_type": "Caffetteria",
			"city": "Sartancangelo di Romagna (RN)",
			"lat": "44.0628340406643",
			"lon": "12.446053310974566",
			"name": "Donminzoni 54",
			"website": "https://www.donminzoni54.com/",
			"type": "0"
		},
 { 
			"id": "91",
			"address": "Piazza Perin del Vaga, 13 (Roma)",
			"shop_type": "Caffetteria",
			"city": "Roma (Roma)",
			"lat": "41.92531826300866",
			"lon": "12.465261637889911",
			"name": "Bar due fontane",
			"website": "https://www.instagram.com/barduefontane/",
			"type": "0"
		},
 { 
			"id": "92",
			"address": "Via del Pellegrino, 87 (Roma)",
			"shop_type": "Caffetteria",
			"city": "Roma (Roma)",
			"lat": "41.89709296862985,",
			"lon": "12.470630897412144",
			"name": "Barnum",
			"website": "https://www.barnumroma.com/",
			"type": "0"
		},
 { 
			"id": "93",
			"address": "Corso G. Matteotti, 184 - Albano Laziale (Roma)",
			"shop_type": "Caffetteria",
			"city": "Albano Laziale (Roma)",
			"lat": "41.7274858649474",
			"lon": "12.660349464868267",
			"name": "Bistrò 184",
			"website": "",
			"type": "0"
		},
 { 
			"id": "94",
			"address": "Viale Aventino, 91/93 (Roma)",
			"shop_type": "Pasticceria",
			"city": "Roma (Roma)",
			"lat": "41.88101397089267",
			"lon": "12.485150355616614",
			"name": "Casa Manfredi",
			"website": "https://www.instagram.com/casamanfredi/",
			"type": "0"
		},
 { 
			"id": "95",
			"address": "Via Tuscolana, 1677 (Roma)",
			"shop_type": "Caffetteria/Torrefazione",
			"city": "Roma (Roma)",
			"lat": "41.81945510118408",
			"lon": "12.648145532332673",
			"name": "Caffè Conti",
			"website": "https://caffeconti.it/",
			"type": "0,1"
		},
 { 
			"id": "96",
			"address": "V. Prato della madonna, 87 - Valmontone (Roma)",
			"shop_type": "Caffetteria",
			"city": "Valmontone (Roma)",
			"lat": "41.7784052878161",
			"lon": "12.918698689470075",
			"name": "DeGustibus club",
			"website": "",
			"type": "0"
		},
 { 
			"id": "97",
			"address": "Via Mura dei Francesi, 197/C - Ciampino (Roma)",
			"shop_type": "Caffetteria",
			"city": "Ciampino (Roma)",
			"lat": "41.79731637482727",
			"lon": "12.60745466458272",
			"name": "E'stratto",
			"website": "https://estratto-bar.business.site/",
			"type": "0"
		},
 { 
			"id": "98",
			"address": "Via Piave, 55 (Roma)",
			"shop_type": "Caffetteria",
			"city": "Roma (Roma)",
			"lat": "41.91033420269979",
			"lon": "12.498995783920273",
			"name": "Faro - Caffè Specialty",
			"website": "https://www.farorome.com/",
			"type": "0"
		},
 { 
			"id": "99",
			"address": "Via Antonio Raimondi, 87 (Roma)",
			"shop_type": "Caffetteria/Galleria d'Arte",
			"city": "Roma (Roma)",
			"lat": "41.891384844268586",
			"lon": "12.532921452099277",
			"name": "Fax Factory",
			"website": "https://www.faxfactory.it/",
			"type": "0"
		},
 { 
			"id": "100",
			"address": "Piazza del Risorgimento, 7 (Roma)",
			"shop_type": "Caffetteria",
			"city": "Roma (Roma)",
			"lat": "41.90662603349194",
			"lon": "12.456567267291401",
			"name": "Pergamino Caffè",
			"website": "https://www.instagram.com/pergaminocaffe/",
			"type": "0"
		},
 { 
			"id": "101",
			"address": "Fiumicino (Roma)",
			"shop_type": "",
			"city": "Fiumicino (Roma)",
			"lat": "41.779672717167415",
			"lon": "12.26231085521126",
			"name": "Picapau",
			"website": "https://www.instagram.com/picapau.coffee/",
			"type": "1"
		},
 { 
			"id": "102",
			"address": "Via Lucrezia Romana, 40/E - Ciampino (Roma)",
			"shop_type": "Caffetteria/Torrefazione",
			"city": "Ciampino (Roma)",
			"lat": "41.80432201835606,",
			"lon": "12.602036616056784",
			"name": "Rinaldi",
			"website": "https://www.instagram.com/rinaldicaffe/",
			"type": "0,1"
		},
 { 
			"id": "103",
			"address": "Piazza Benedetto Cairoli, 16 (Roma)",
			"shop_type": "Pasticceria/Caffeteria",
			"city": "Roma (Roma)",
			"lat": "41.89416288638192",
			"lon": "12.474486791908431",
			"name": "Roscioli Caffè",
			"website": "https://www.rosciolicaffe.com/",
			"type": "0"
		},
 { 
			"id": "104",
			"address": "Via Marmorata, 13 (Roma)",
			"shop_type": "Caffetteria",
			"city": "Roma (Roma)",
			"lat": "41.878626109565175",
			"lon": "12.47988170720122",
			"name": "Tram Depot Testaccio",
			"website": "https://www.instagram.com/tramdepot_/",
			"type": "0"
		},
 { 
			"id": "105",
			"address": "Via Marmorata, 13 (Roma)",
			"shop_type": "Caffetteria",
			"city": "Roma (Roma)",
			"lat": "41.946063196130375",
			"lon": "12.552996551382925",
			"name": "Tram Depot Talenti",
			"website": "https://www.instagram.com/tramdepot_/",
			"type": "0"
		},
 { 
			"id": "106",
			"address": "Circonvallazione Ostiense, 201 (Roma)",
			"shop_type": "Pasticceria",
			"city": "Roma (Roma)",
			"lat": "41.867455923054194",
			"lon": "12.490229764934854",
			"name": "Nero Vaniglia",
			"website": "https://www.instagram.com/nerovaniglia/",
			"type": "0"
		},
 { 
			"id": "107",
			"address": "Corso Vittorio Emanuele, 21 (SA)",
			"shop_type": "Caffetteria/Torrefazione",
			"city": "Salerno (SA)",
			"lat": "40.675466517309765",
			"lon": "14.771017705312266",
			"name": "Castorino Amore Espresso",
			"website": "https://www.instagram.com/castorinoamorespresso/",
			"type": "0,1"
		},
 { 
			"id": "108",
			"address": "Via Vicinanza 38 (SA)",
			"shop_type": "Caffetteria",
			"city": "Salerno (SA)",
			"lat": "40.67507258180446",
			"lon": "14.771063996741649",
			"name": "Zero Healthy bar",
			"website": "https://www.zerohealthy.it/",
			"type": "0"
		},
 { 
			"id": "109",
			"address": "P. tta Filippo Buonaccorsi 5 (SI)",
			"shop_type": "Caffetteria",
			"city": "San Gimignano (SI)",
			"lat": "43.46976774658204",
			"lon": "11.04187965513464",
			"name": "Magnino",
			"website": "https://magnino.eu/menu-caffetteria/",
			"type": "0"
		},
 { 
			"id": "110",
			"address": "Via P. P. Pasolini 8 - Sinalunga (SI)",
			"shop_type": "Caffetteria/Torrefazione",
			"city": "Sinalunga (SI)",
			"lat": "43.21646752242032",
			"lon": "11.75304355751073",
			"name": "Lo Scuro",
			"website": "http://www.loscuro.it/",
			"type": "0,1"
		},
 { 
			"id": "111",
			"address": "Via Moso, 40 (SR)",
			"shop_type": "Caffetteria",
			"city": "Siracusa (SR)",
			"lat": "37.07063774731846",
			"lon": "15.286925843297345",
			"name": "Insolito",
			"website": "https://www.facebook.com/Insolito-Caf%C3%A8-Siracusa-419930784804069/",
			"type": "0"
		},
 { 
			"id": "112",
			"address": "SS 1 Via Aurelia, 19021, Arcola  (SP)",
			"shop_type": "Caffetteria",
			"city": "Arcola (SP)",
			"lat": "44.11990391633783",
			"lon": "9.91349449933544",
			"name": "Caffetteria al 175",
			"website": "https://caffetteria-al175.business.site/?utm_source=gmb&utm_medium=referral",
			"type": "0"
		},
 { 
			"id": "113",
			"address": "Via G. Aprile, 12 - Martina Franca (TA)",
			"shop_type": "Caffetteria/Torrefazione",
			"city": "Martina Franca (TA)",
			"lat": "40.70509306446712",
			"lon": "17.340160314476215",
			"name": "Caffè Caroli",
			"website": "https://www.caffecaroli.it/shop/it/37-specialty-coffee",
			"type": "0,1"
		},
 { 
			"id": "114",
			"address": "Corso Adriatico, 342 - Sant’Egidio alla Vibrata (TE)",
			"shop_type": "Caffetteria",
			"city": "Sant’Egidio alla Vibrata (TE)",
			"lat": "42.81756355688865",
			"lon": "13.722400157493288",
			"name": "The Brothers",
			"website": "https://www.facebook.com/THEBROTHER.SANT/",
			"type": "0"
		},
 { 
			"id": "115",
			"address": "Corso Vittorio Emanuele II, 206 (TO)",
			"shop_type": "Caffetteria",
			"city": "Torino (TO)",
			"lat": "45.074507801051915",
			"lon": "7.646989697056634",
			"name": "La Boutique",
			"website": "https://www.facebook.com/Efrem-Gourmet-Boutique-and-Finest-Bar-110465073806325/",
			"type": "0"
		},
 { 
			"id": "116",
			"address": "Via Viterbo, 98 (TO)",
			"shop_type": "Caffetteria",
			"city": "Torino (TO)",
			"lat": "45.096602273756695",
			"lon": "7.6609427407260995",
			"name": "Barista Formato",
			"website": "",
			"type": "0"
		},
 { 
			"id": "117",
			"address": "Via Teofilo rossi 2, (TO)",
			"shop_type": "Caffetteria/Torrefazione",
			"city": "Torino (TO)",
			"lat": "45.066091651167945",
			"lon": "7.682563521439363",
			"name": "Costadoro Social Coffee Factory",
			"website": "https://costadoro.it/chi-siamo/factory/",
			"type": "0,1"
		},
 { 
			"id": "119",
			"address": "Via Stradella 242 (TO)",
			"shop_type": "Cioccolateria/Caffetteria",
			"city": "Torino (TO)",
			"lat": "45.10479311641491",
			"lon": "7.664389859524661",
			"name": "Gocce di Cioccolato",
			"website": "http://www.goccedicioccolato.net/",
			"type": "0,1"
		},
 { 
			"id": "120",
			"address": "Via san secondo 17f (TO)",
			"shop_type": "Caffetteria",
			"city": "Torino (TO)",
			"lat": "45.060750305405875",
			"lon": "7.674526815485178",
			"name": "La Hacienda",
			"website": "https://www.instagram.com/lahaciendatorino/",
			"type": "0"
		},
 { 
			"id": "121",
			"address": "Via Berthollet, 30g (TO)",
			"shop_type": "Caffetteria/Torrefazione",
			"city": "Torino (TO)",
			"lat": "45.05826747709034",
			"lon": "7.684631430053931",
			"name": "Orso",
			"website": "https://www.orsolaboratoriocaffe.it/",
			"type": "0,1"
		},
 { 
			"id": "122",
			"address": "Via Trevisi, 16 (TV)",
			"shop_type": "Caffetteria/Torrefazione",
			"city": "Treviso (TV)",
			"lat": "45.666256413817834",
			"lon": "12.247094512542919",
			"name": "Taste Coffee & More",
			"website": "https://www.tastecoffee.it/",
			"type": "0,1"
		},
 { 
			"id": "123",
			"address": "Via di Cavana, 8 (TS)",
			"shop_type": "Caffetteria",
			"city": "Trieste (TS)",
			"lat": "45.6487788800899",
			"lon": "13.767652264996808",
			"name": "Adoro Cafè",
			"website": "https://www.facebook.com/adorocafetrieste/",
			"type": "0"
		},
 { 
			"id": "124",
			"address": "Piazza Attilio Hortis, 6 (TS)",
			"shop_type": "Caffetteria",
			"city": "Trieste (TS)",
			"lat": "45.647526982980295",
			"lon": "13.765474886427468",
			"name": "Mug",
			"website": "https://mugbakery.com/ec/",
			"type": "0"
		},
 { 
			"id": "125",
			"address": "Corso Italia, 14 (NO)",
			"shop_type": "Caffetteria",
			"city": "Novara (NO)",
			"lat": "45.4486454252878",
			"lon": "8.621101965250123",
			"name": "Umberto I",
			"website": "https://www.umbertoprimonovara.com/",
			"type": "0"
		},
 { 
			"id": "126",
			"address": "Via delle torri, 2 (TS)",
			"shop_type": "Caffetteria",
			"city": "Trieste (TS)",
			"lat": "45.651302275833494",
			"lon": "13.776703928222647",
			"name": "Osteria del Caffè",
			"website": "https://www.instagram.com/osteria_del_caffe/",
			"type": "0"
		},
 { 
			"id": "127",
			"address": "Via Sandro Botticelli, 5/7, 05100 Terni TR",
			"shop_type": "Caffetteria",
			"city": "Terni (TR)",
			"lat": "42.56417001137596",
			"lon": "12.643218637692865",
			"name": "Caffè Divino",
			"website": "https://caffedivinoshop.it/",
			"type": "0"
		},
 { 
			"id": "129",
			"address": "Fondamenta dei Ormesini, 2804 (VE)",
			"shop_type": "Caffetteria/Torrefazione",
			"city": "Venezia (VE)",
			"lat": "45.44577705883802",
			"lon": "12.327793597238873",
			"name": "Cannareggio",
			"website": "https://www.torrefazionecannaregio.it/",
			"type": "0,1"
		},
 { 
			"id": "130",
			"address": "Piazza Niccolò Tommaseo, 11",
			"shop_type": "Caffetteria",
			"city": "Montebelluna (TV)",
			"lat": "45.77712118460494",
			"lon": "12.047092299391002",
			"name": "Wake cup",
			"website": "https://www.instagram.com/wakecup__specialtycoffee/",
			"type": "0"
		},
 { 
			"id": "131",
			"address": "Via Enzo Ferrari, 8 Castelfidardo (AN)",
			"shop_type": "",
			"city": "Castelfidardo (AN)",
			"lat": "43.45038193320462",
			"lon": "13.581720966774919",
			"name": "The Smoking Tiger",
			"website": "https://thesmokingtiger.coffee/",
			"type": "1"
		},
 { 
			"id": "132",
			"address": "Via del terziario, buchi di Monteprandone  (AP)",
			"shop_type": "",
			"city": "Ascoli Piceno (AP)",
			"lat": "42.896265136117556",
			"lon": "13.871348080249227",
			"name": "Orlandi Passion",
			"website": "https://www.instagram.com/orlandipassion/",
			"type": "1"
		},
 { 
			"id": "133",
			"address": "Viale Venezia 16/n - Bassano del Grappa (VI)",
			"shop_type": "",
			"city": "Bassano del Grappa (VI)",
			"lat": "45.77076469517174",
			"lon": "11.765467872643882",
			"name": "Nero Scuro",
			"website": "https://it.neroscurocoffee.com/",
			"type": "1"
		},
 { 
			"id": "134",
			"address": "",
			"shop_type": "pasticceria/caffeteria",
			"city": "Bergamo (BG)",
			"lat": "45.698554621596735",
			"lon": "9.67389180119999",
			"name": "Critical Coffee",
			"website": "https://www.critical.coffee/",
			"type": "1"
		},
 { 
			"id": "135",
			"address": "Via Roma, 133, 24059 Urgnano (BG)",
			"shop_type": "pasticceria/caffeteria",
			"city": "Urgnano (BG)",
			"lat": "45.598083902093514",
			"lon": "9.699828053354125",
			"name": "Spirit of Coffee",
			"website": "https://spiritofcoffee.it/",
			"type": "1"
		},
 { 
			"id": "136",
			"address": "Zona Artigianale, 92 -  Fie’ allo Sciliar (BZ)",
			"shop_type": "pasticceria/caffeteria",
			"city": "Fie’ allo Sciliar (BZ)",
			"lat": "46.527720656823064",
			"lon": "11.51010869941666",
			"name": "Caroma",
			"website": "https://caroma.info/it/home-caroma-torrefazione-centro-di-formazione-bottega-del-caffe.html",
			"type": "1"
		},
 { 
			"id": "137",
			"address": "v. Mühlbach 23, - Prato allo Stelvio (BZ)",
			"shop_type": "Torrefazione/Caffetteria",
			"city": "Prato allo Stelvio (BZ)",
			"lat": "46.624259368308635",
			"lon": "10.617805262430464",
			"name": "Kuntrawant",
			"website": "https://www.kuntrawant.com/it/cafe/",
			"type": "0,1"
		},
 { 
			"id": "139",
			"address": "Via delle Monache, 7 - Cellole (CE)",
			"shop_type": "pasticceria/caffeteria",
			"city": "Cellole (CE)",
			"lat": "41.20375955385758",
			"lon": "13.849244261357368",
			"name": "Caffè Verrè",
			"website": "https://www.caffeverre.it/it/",
			"type": "1"
		},
 { 
			"id": "140",
			"address": "Via Paolo Ferrari, 3 Gadesco (CR)",
			"shop_type": "pasticceria/caffeteria",
			"city": "Gadesco (CR)",
			"lat": "45.154050263469294",
			"lon": "10.104448418949259",
			"name": "Street Coffee",
			"website": "https://streetcoffeeschool.business.site/",
			"type": "1"
		},
 { 
			"id": "141",
			"address": "Via Ferrabò, 4 (CR)",
			"shop_type": "pasticceria/caffeteria",
			"city": "Cremona (CR)",
			"lat": "45.13797706149003",
			"lon": "10.03252407382658",
			"name": "Torrefazione Vittoria",
			"website": "https://torrefazionevittoria.com/",
			"type": "1"
		},
 { 
			"id": "142",
			"address": "Via Bongiovanni, 32 (FE)",
			"shop_type": "pasticceria/caffeteria",
			"city": "Ferrara (FE)",
			"lat": "44.848776245025356",
			"lon": "11.59747285240328",
			"name": "Penazzi",
			"website": "Phttps://www.caffepenazzi.it/",
			"type": "1"
		},
 { 
			"id": "143",
			"address": "Via delle Torri, 55 (FI)",
			"shop_type": "pasticceria/caffeteria",
			"city": "Firenze (FI)",
			"lat": "43.77463137094554",
			"lon": "11.205790522606016",
			"name": "Caffelab",
			"website": "https://www.caffelab.it/?gclid=CjwKCAiAvriMBhAuEiwA8Cs5leCURmcy7hfelk14NIOrWX3nihW5uxn6bwf4K8Q7-amhvzPJhkp7rxoCc-8QAvD_BwE",
			"type": "1"
		},
 { 
			"id": "144",
			"address": "Via dei Bastioni, 38 (FI)",
			"shop_type": "pasticceria/caffeteria",
			"city": "Firenze (FI)",
			"lat": "43.763533746767834",
			"lon": "11.269544601240383",
			"name": "Dini Caffè",
			"website": "https://dinicaffe.it/",
			"type": "1"
		},
 { 
			"id": "145",
			"address": "Via Cittadela 2 r/b (FI)",
			"shop_type": "pasticceria/caffeteria",
			"city": "Firenze (FI)",
			"lat": "43.77923347429218",
			"lon": "11.24291085019886",
			"name": "D612",
			"website": "https://d612coffeeroasters.com/",
			"type": "1"
		},
 { 
			"id": "146",
			"address": "Via del Bagnone, 24 - Borgo San Lorenzo (FI)",
			"shop_type": "pasticceria/caffeteria",
			"city": "Borgo San Lorenzo (FI)",
			"lat": "43.959493838123045",
			"lon": "11.358768158853277",
			"name": "Gearbox Coffee Roaster",
			"website": "https://gearboxcoffeeroasters.coffee/it/",
			"type": "1"
		},
 { 
			"id": "147",
			"address": "Via Statale, 240  -  Quarrata (PT)",
			"shop_type": "",
			"city": "Quarrata (PT)",
			"lat": "43.86958924376267",
			"lon": "10.987502522040227",
			"name": "Oriental Caffè",
			"website": "Ohttps://orientalcaffe.it/",
			"type": "1"
		},
 { 
			"id": "148",
			"address": "Via A. Meucci, 1 - Cascine del Riccio (FI)",
			"shop_type": "pasticceria/caffeteria",
			"city": "Ponte a Ema (FI)",
			"lat": "43.7358257174708",
			"lon": "11.293835183104989",
			"name": "Torrefazione Piansa",
			"website": "https://www.caffepiansa.com/",
			"type": "1"
		},
 { 
			"id": "149",
			"address": "Via G. Rossa, 14 b",
			"shop_type": "pasticceria/caffeteria",
			"city": "Firenze (FI)",
			"lat": "43.732006622599705",
			"lon": "11.257127581604763",
			"name": "La Sosta Specialty Coffee",
			"website": "https://lasosta.coffee/it/shop",
			"type": "1"
		},
 { 
			"id": "150",
			"address": "Via Dogali, 3r (FI)",
			"shop_type": "pasticceria/caffeteria",
			"city": "Firenze (FI)",
			"lat": "43.78550430755077",
			"lon": "11.272391153293553",
			"name": "Spazio Caffè Firenze",
			"website": "https://www.spaziocaffefirenze.it/",
			"type": "1"
		},
 { 
			"id": "151",
			"address": "Via Piero Gobetti, 9 - Signa (FI)",
			"shop_type": "pasticceria/caffeteria",
			"city": "Signa (FI)",
			"lat": "43.79390272364961",
			"lon": "11.102747676042702",
			"name": "La Tosteria",
			"website": "https://www.latosteria.it/",
			"type": "1"
		},
 { 
			"id": "152",
			"address": "Via III armata,  91 (GO)",
			"shop_type": "pasticceria/caffeteria",
			"city": "Gorizia (GO)",
			"lat": "45.93009525274182",
			"lon": "13.624603471093453",
			"name": "Torrefazione Goriziana",
			"website": "https://caffegoriziana.com/",
			"type": "1"
		},
 { 
			"id": "153",
			"address": "Piazza Cavour, 26 - Gravina di Puglia (BA)",
			"shop_type": "pasticceria/caffeteria",
			"city": "Gravina di Puglia (BA)",
			"lat": "40.81667647082307",
			"lon": "16.419113566908546",
			"name": "Pierre Caffè",
			"website": "https://www.pierrecafe.com/",
			"type": "1"
		},
 { 
			"id": "154",
			"address": "Annibale Mores, 60 - Gravina di Puglia (BA)",
			"shop_type": "pasticceria/caffeteria",
			"city": "Gravina di Puglia (BA)",
			"lat": "40.82347050362402",
			"lon": "16.416139999863415",
			"name": "Son of Coffee",
			"website": "https://www.pierrecafe.com/specialty-coffee-torrefazione-artigianale-caffe/",
			"type": "1"
		},
 { 
			"id": "155",
			"address": "Via U. Foscolo, 4 Arzignano (VI)",
			"shop_type": "pasticceria/caffeteria",
			"city": "Arzignano (VI)",
			"lat": "45.52508261135368",
			"lon": "11.335808195679848",
			"name": "Young Cup of Coffee",
			"website": "https://youngcup.coffee/prodotti/",
			"type": "1"
		},
 { 
			"id": "156",
			"address": "Strada statale 16 -zona industriale (LE)",
			"shop_type": "pasticceria/caffeteria",
			"city": "Lecce (LE)",
			"lat": "40.37332018972198",
			"lon": "18.136392799971933",
			"name": "Edo Quarta",
			"website": "https://eshop.edoquarta.it/",
			"type": "1"
		},
 { 
			"id": "157",
			"address": "Via Provinciale Pisana, 583/b (LI)",
			"shop_type": "pasticceria/caffeteria",
			"city": "Livorno (LI)",
			"lat": "43.57442799139015",
			"lon": "10.337546605359629",
			"name": "Le Piantagioni del Caffè",
			"website": "https://shop.lepiantagionidelcaffe.com/?gclid=CjwKCAiAvriMBhAuEiwA8Cs5lds_lJLdUlQCgHMgrdlYoyhb9AQVJnXFLWoB1PH4NBWCKBl4ofswkBoC5MMQAvD_BwE",
			"type": "1"
		},
 { 
			"id": "158",
			"address": "Via Valparaiso, 9 (MI)",
			"shop_type": "pasticceria/caffeteria",
			"city": "Milano (MI)",
			"lat": "45.45705012158514",
			"lon": "9.163249669837901",
			"name": "Lotzero",
			"website": "https://lotzero.com/it/",
			"type": "1"
		},
 { 
			"id": "159",
			"address": "Via Antonio Pacinotti, 1 - Lissone (MB)",
			"shop_type": "pasticceria/caffeteria",
			"city": "Lissone (MB)",
			"lat": "45.611948748740055",
			"lon": "9.250472538010968",
			"name": "Peacocks",
			"website": "peacockscoffee.com",
			"type": "1"
		},
 { 
			"id": "160",
			"address": "Via Marino Zanutel, 2 - Melzo (MI)",
			"shop_type": "pasticceria/caffeteria",
			"city": "Melzo (MI)",
			"lat": "45.506336162938986",
			"lon": "9.431012076204203",
			"name": "Zar Cafè",
			"website": "https://www.zarcafe.it/",
			"type": "1"
		},
 { 
			"id": "161",
			"address": "Via Poggio Bracciolini, 4 - Montevarchi(AR)",
			"shop_type": "pasticceria/caffeteria",
			"city": "Montevarchi (AR)",
			"lat": "43.524899042705435",
			"lon": "11.567131310956855",
			"name": "Pacamara Coffee Lab",
			"website": "https://pacamaracoffeelab.com/?lang=it",
			"type": "1"
		},
 { 
			"id": "162",
			"address": "Via Benvenuto Cellini, 17 (MB)",
			"shop_type": "pasticceria/caffeteria",
			"city": "Monza (MB)",
			"lat": "45.60254866046352",
			"lon": "9.30602874780032",
			"name": "His Majesty the Coffee",
			"website": "https://www.hmcmonza.com/",
			"type": "1"
		},
 { 
			"id": "163",
			"address": "Via N.Tommaseo 12 - Seveso (MB)",
			"shop_type": "pasticceria/caffeteria",
			"city": "Seveso (MB)",
			"lat": "45.646095750514284",
			"lon": "9.139484241605304",
			"name": "Il Griso",
			"website": "https://www.grisocoffee.com/",
			"type": "1"
		},
 { 
			"id": "164",
			"address": "Via Vittorio Emanuele, 610 (NA)",
			"shop_type": "pasticceria/caffeteria",
			"city": "Napoli (NA)",
			"lat": "40.839569202075985",
			"lon": "14.240283182466694",
			"name": "Sansone",
			"website": "https://caffesansone.com/it/",
			"type": "0,1"
		},
 { 
			"id": "165",
			"address": "Via Baracca,6 - Rivanazzano Terme (PV)",
			"shop_type": "pasticceria/caffeteria",
			"city": "Rivanazzano Terme (PV)",
			"lat": "44.95152182904139",
			"lon": "9.013355766824553",
			"name": "Little Bean",
			"website": "https://www.littlebean.it/",
			"type": "1"
		},
 { 
			"id": "166",
			"address": "Via Enzo Biagi, 3-5 (PA)",
			"shop_type": "pasticceria/caffeteria",
			"city": "Palermo (PA)",
			"lat": "38.158788627578204",
			"lon": "13.319633427037509",
			"name": "La Musa Nera",
			"website": "https://lamusanera.it/",
			"type": "1"
		},
 { 
			"id": "167",
			"address": "Strada di Mezzo, 5 - San Secondo Parmense (PR)",
			"shop_type": "pasticceria/caffeteria",
			"city": "San Secondo Parmense (PR)",
			"lat": "44.912514929376144",
			"lon": "10.242908490105226",
			"name": "Lady Caffè",
			"website": "https://www.torrefazioneladycafe.com/",
			"type": "1"
		},
 { 
			"id": "168",
			"address": "via della scienza, 50 - Ponte San Giovanni (PG)",
			"shop_type": "pasticceria/caffeteria",
			"city": "Ponte San Giovanni (PG)",
			"lat": "43.07905684457928",
			"lon": "12.43907860357051",
			"name": "Primo Crack",
			"website": "https://www.facebook.com/Torrefazione-Primocrack-111377843651803/",
			"type": "1"
		},
 { 
			"id": "169",
			"address": "Via Martiri della Libertà 203C - Massa Lombarda (RA)",
			"shop_type": "pasticceria/caffeteria",
			"city": "Massa Lombarda (RA)",
			"lat": "44.455680175166485",
			"lon": "11.796642759402811",
			"name": "Torrefazione Paradiso",
			"website": "https://www.torrefazioneparadiso.it/",
			"type": "1"
		},
 { 
			"id": "170",
			"address": "Via Nazionale, 167 - Cittanova (RC)",
			"shop_type": "pasticceria/caffeteria",
			"city": "Cittanova (RC)",
			"lat": "38.35174513724364",
			"lon": "16.073346721513374",
			"name": "Cannizzaro",
			"website": "https://www.caffecannizzaro.it/",
			"type": "1"
		},
 { 
			"id": "171",
			"address": "Via statale 467 n* 5/38 (RE)",
			"shop_type": "pasticceria/caffeteria",
			"city": "Reggio Emilia (RE)",
			"lat": "44.58963482829856",
			"lon": "10.726405418930382",
			"name": "Santa Fara Caffè",
			"website": "https://www.santafaracaffe.it/",
			"type": "1"
		},
 { 
			"id": "172",
			"address": "Via S. Sebastiano, 130 Fiano Romano (Roma)",
			"shop_type": "pasticceria/caffeteria",
			"city": "Fiano Romano (Roma)",
			"lat": "42.14641680926725",
			"lon": "12.621534672819918",
			"name": "Caffè Italia",
			"website": "",
			"type": "1"
		},
 { 
			"id": "174",
			"address": "Via Vittorio Veneto 18 - Albenga (SV)",
			"shop_type": "pasticceria/caffeteria",
			"city": "Albenga (SV)",
			"lat": "44.05527932041531",
			"lon": "8.192387932404882",
			"name": "La Genovese",
			"website": "https://www.lagenovese.it/",
			"type": "1"
		},
 { 
			"id": "175",
			"address": "S.S. Torino-Asti, km 20 – Santena (TO)",
			"shop_type": "pasticceria/caffeteria",
			"city": "Santelena (TO)",
			"lat": "44.95807182819166",
			"lon": "7.800507544271841",
			"name": "Vergnano",
			"website": "",
			"type": "1"
		},
 { 
			"id": "176",
			"address": "Via per Zambana vecchia,9 - Zambana (TN)",
			"shop_type": "pasticceria/caffeteria",
			"city": "Zambana (TN)",
			"lat": "46.157968736870785",
			"lon": "11.075289526388596",
			"name": "I Druper",
			"website": "https://www.idrupercoffee.com/",
			"type": "1"
		},
 { 
			"id": "177",
			"address": "Campo Del Belvedere, 6 (TS)",
			"shop_type": "pasticceria/caffeteria",
			"city": "Trieste (TS)",
			"lat": "45.65935146261693",
			"lon": "13.772917390130447",
			"name": "Bloom Coffee",
			"website": "https://www.bloomcoffee.shop/",
			"type": "1"
		},
 { 
			"id": "178",
			"address": "Via XXV Aprile, 4 - Ventimiglia (IM)",
			"shop_type": "pasticceria/caffeteria",
			"city": "Ventimiglia (IM)",
			"lat": "43.795380608394794",
			"lon": "7.604413944037358",
			"name": "Coffeel",
			"website": "https://coffeelshop.net/",
			"type": "1"
		},
 { 
			"id": "179",
			"address": "Via Basso Acquar, 30/C (VR)",
			"shop_type": "pasticceria/caffeteria",
			"city": "Verona (VR)",
			"lat": "45.42354469073222",
			"lon": "10.990448874685578",
			"name": "Garage Coffee Bros",
			"website": "https://garagecoffeebros.com/",
			"type": "0,1"
		},
 { 
			"id": "180",
			"address": "Via Monte Tomba, 2, - Marzana (VR)",
			"shop_type": "pasticceria/caffeteria",
			"city": "Marzana (VR)",
			"lat": "45.50091515655216",
			"lon": "11.022695628217507",
			"name": "Manifattura Caffè",
			"website": "https://www.manifatturacaffe.it/",
			"type": "1"
		},
 { 
			"id": "181",
			"address": "Via Sparano da Bari, 120",
			"shop_type": "Caffetteria",
			"city": "Bari (BA)",
			"lat": "41.122671084893526",
			"lon": "16.870162393685117",
			"name": "Caffè Cognetti",
			"website": "https://www.caffecognetti.com/",
			"type": "0,1"
		},
 { 
			"id": "182",
			"address": "Via Francesco Rubichini, 135 (LE)",
			"shop_type": "Caffetteria",
			"city": "Lecce (LE)",
			"lat": "40.35333897276944",
			"lon": "18.17176093043563",
			"name": "Caffè Cittadino",
			"website": "https://www.facebook.com/CaffeCittadino/",
			"type": "1"
		},
 { 
			"id": "183",
			"address": "Via Giuseppe Mazzini, 32 - Pomigliano d’Arco (NA)",
			"shop_type": "Caffetteria",
			"city": "Pomigliano d’Arco (NA)",
			"lat": "40.91249056108539",
			"lon": "14.402414731771131",
			"name": "Azalè - bistrot e spirits",
			"website": "https://www.facebook.com/Azaleflowerbar/",
			"type": "0"
		},
 { 
			"id": "184",
			"address": "Via Vincenzo Forcella, 7, 20144 Milano MI",
			"shop_type": "Spazio polifunzionale",
			"city": "Milano (MI)",
			"lat": "45.45233995791278",
			"lon": "9.168436644092639",
			"name": "Faema flagship store - Art & Caffeine",
			"website": "https://artandcaffeine.faema.it/it/",
			"type": "1"
		},
 { 
			"id": "185",
			"address": "Corso Vittorio Alfieri, 174, 14100 Asti AT",
			"shop_type": "Caffetteria",
			"city": "Asti (AT)",
			"lat": "44.90138916976661",
			"lon": "8.208243130581726",
			"name": "Lo Spuntino",
			"website": "https://www.caffelospuntinoasti.it/",
			"type": "1"
	},
 { 
			"id": "186",
			"address": "Viale dei Pini, 1, 80131 Napoli NA",
			"shop_type": "Caffetteria",
			"city": "Napoli (NA)",
			"lat": "40.87101785257837",
			"lon": "14.24644002068872",
			"name": "Ubar",
			"website": "https://www.facebook.com/Ubarnapoli",
			"type": "0"
	},
 { 
			"id": "187",
			"address": "Via dei Mille, 36, 27100 Pavia PV",
			"shop_type": "Caffetteria",
			"city": "Pavia (PV)",
			"lat": "45.17908331323352",
			"lon": "9.15220295667167",
			"name": "Miccone",
			"website": "https://www.caffelospuntinoasti.it/",
			"type": "0"
	},
 { 
			"id": "188",
			"address": "Via del Popolo, 28 - Vigevano (PV)",
			"shop_type": "Caffetteria/Torrefazione",
			"city": "Vigevano (PV)",
			"lat": "45.31660442124652",
			"lon": "8.856856295231157",
			"name": "Caffè Diem",
			"website": "https://www.torrefazionevigevano.it/",
			"type": "0,1"
	},
 { 
			"id": "189",
			"address": "Via F. Brunelleschi, 33, 41012 Carpi MO",
			"shop_type": "Panificio/Caffetteria",
			"city": "Carpi (MO)",
			"lat": "44.80286630397431",
			"lon": "10.88211669195286",
			"name": "Farina del tuo sacco",
			"website": "https://farinadeltuosacco.business.site/",
			"type": "0"
	},
 { 
			"id": "190",
			"address": "Via Casilina Nord, 63, 03030 Villa Santa Lucia FR",
			"shop_type": "Specialty Truck",
			"city": "Cassino (FR)",
			"lat": "41.481828231353084",
			"lon": "13.801254895547718",
			"name": "Croque Croissanterie",
			"website": "",
			"type": "0"
	},
 { 
			"id": "191",
			"address": "Via Ospedale, 6, 12051 Alba CN",
			"shop_type": "Enoteca/Caffetteria",
			"city": "Alba (CN)",
			"lat": "44.701573244345276",
			"lon": "8.032183491949496",
			"name": "Petricore",
			"website": "https://www.facebook.com/PetricoreEnoteca/",
			"type": "0"
	},
 { 
			"id": "192",
			"address": "Viale Giuseppe de Vito - Poggio Mirteto (RI)",
			"shop_type": "",
			"city": "Poggio Mirteto - Rieti (RI)",
			"lat": "42.26567469267282",
			"lon": "12.689165458828551",
			"name": "OM Roastery",
			"website": "https://omroastery.com/",
			"type": "1"
	},
 { 
			"id": "193",
			"address": "Via Cupra, 50, 00157 Roma RM",
			"shop_type": "Caffetteria",
			"city": "Roma (Roma)",
			"lat": "41.90945252090889",
			"lon": "12.537107486304675",
			"name": "Pouring happiness",
			"website": "https://www.facebook.com/Pouring-Happiness-118746140043567/",
			"type": "0"
	},
 { 
			"id": "194",
			"address": "Via Palazzo di Città, 22d, 10122 Torino TO",
			"shop_type": "Caffetteria",
			"city": "Torino (TO)",
			"lat": "45.07293453779373",
			"lon": "7.682636964977373",
			"name": "Infusion Café",
			"website": "https://infusioncafetorino.com/",
			"type": "0"
	},
 { 
			"id": "195",
			"address": "Via San Liberale, 10, 31100 Treviso TV",
			"shop_type": "Caffetteria",
			"city": "Treviso (TV)",
			"lat": "45.66637974442391",
			"lon": "12.239611974787026",
			"name": "Bloom",
			"website": "https://www.bloom-italia.com/",
			"type": "0"
	},
 { 
			"id": "196",
			"address": "Via Giacomo Boni, 25, 20144 Milano MI",
			"shop_type": "Pasticceria/Caffetteria",
			"city": "Milano (MI)",
			"lat": "45.46030876083753",
			"lon": "9.157740882185331",
			"name": "Cléa",
			"website": "https://www.pasticceriaclea.it/",
			"type": "0"
	},
 { 
			"id": "173",
			"address": "Strada Sanmichele, Turi (BA)",
			"shop_type": "Torrefazione",
			"city": "Turi (BA)",
			"lat": "40.90884256347022",
			"lon": "17.008557887676858",
			"name": "Il Manovale",
			"website": "https://www.instagram.com/ilmanovale/",
			"type": "1"
	},
 { 
			"id": "20",
			"address": "Via Bonvesin de la Riva, 3 (MI)",
			"shop_type": "Caffetteria",
			"city": "Milano (MI)",
			"lat": "45.46343361045552",
			"lon": "9.212572764512293",
			"name": "Orsonero Coffee",
			"website": "http://www.orsonerocoffee.it/",
			"type": "0"
	},
 { 
			"id": "197",
			"address": "Via Porta Nova, 12/b (BO)",
			"shop_type": "Caffetteria",
			"city": "Bologna (BO)",
			"lat": "44.494389287763745",
			"lon": "11.338473801199175",
			"name": "Aroma",
			"website": "https://www.ilpiaceredelcaffe.it/",
			"type": "0"
	},
 { 
			"id": "198",
			"address": "Via Alberto La Rosa, 8 Civitavecchia (Roma)",
			"shop_type": "Torrefazione",
			"city": "Civitavecchia (Roma)",
			"lat": "11.780486863029504",
			"lon": "11.338473801199175",
			"name": "Torrefazione '68",
			"website": "http://www.torrefazione68.com/",
			"type": "1"
	},
 { 
			"id": "199",
			"address": "Viale di Trastevere, 192 (Roma)",
			"shop_type": "Whiskey & Coffee",
			"city": "Roma (Roma)",
			"lat": "41.87919195506251",
			"lon": "12.466307768575717",
			"name": "Treefolk's Public House",
			"website": "https://www.treefolkspublichouse.com/?page_id=153(si%20apre%20in%20una%20nuova%20scheda",
			"type": "0"
	},
 { 
			"id": "200",
			"address": "Via Isole Figi, 1",
			"shop_type": "Caffetteria",
			"city": "Lido di Ostia (Roma)",
			"lat": "41.73892398203752",
			"lon": "12.281397222540454",
			"name": "L'Angolo del Caffè",
			"website": "https://www.instagram.com/angolodelcaffe1998/",
			"type": "0"
	},
 { 
			"id": "201",
			"address": "Via De' Giudei, 2 (BO)",
			"shop_type": "Caffetteria",
			"city": "Bologna (BO)",
			"lat": "44.494940651551815",
			"lon": "11.346997066809319",
			"name": "Pappare'",
			"website": "http://www.pappa-reale.it/",
			"type": "0"
	},
 { 
			"id": "202",
			"address": "Via dell'Olmo, 19 Frascati (Roma)",
			"shop_type": "Caffetteria",
			"city": "Frascati (Roma)",
			"lat": "41.80940440539149",
			"lon": "12.680971549527236",
			"name": "Koru",
			"website": "https://www.korucaffefrascati.it/",
			"type": "0"
	},
 { 
			"id": "203",
			"address": "Viale Cadorna, 6/A-8 Treviso TV",
			"shop_type": "Caffetteria",
			"city": "Treviso (TV)",
			"lat": "45.663285563135574",
			"lon": "12.243840607139242",
			"name": "Filò",
			"website": "https://www.facebook.com/filobar",
			"type": "0"
	},
{ 
			"id": "204",
			"address": "Piazza della Libertà, 10d - Scandiano (RE)",
			"shop_type": "Ristorante",
			"city": "Scandiano (RE)",
			"lat": "44.59975562431817",
			"lon": "10.686865549074344",
			"name": "Il Piccolo",
			"website": "https://website--6397993579600301650149-bar.business.site/",
			"type": "0"
	},
{ 
			"id": "205",
			"address": "Piazza G. Garibaldi, 10 Soncino (CR)",
			"shop_type": "Caffetteria",
			"city": "Soncino (CR)",
			"lat": "45.39992460850182",
			"lon": "9.873532220636816",
			"name": "Bar Torre",
			"website": "",
			"type": "0"
	},
{ 
			"id": "206",
			"address": "Via Riva di Reno, 65/M (BO)",
			"shop_type": "Caffetteria",
			"city": "Bologna (BO)",
			"lat": "44.49910048596055",
			"lon": "11.339575063106867",
			"name": "Mister Coffee Bistrò",
			"website": "https://www.instagram.com/vladigal_mistercoffeebistro/?utm_medium=copy_link",
			"type": "0"
	},
{ 
			"id": "207",
			"address": "Via Francesco Genala, 13",
			"shop_type": "Caffetteria",
			"city": "Diano Marina (IM)",
			"lat": "43.90976856733408",
			"lon": "8.082865897477213",
			"name": "Il caffè del Caprice",
			"website": "https://www.facebook.com/ilCaffedelCaprice",
			"type": "0"
	},
{ 
			"id": "208",
			"address": "Via G. Verdi, 29 (TV)",
			"shop_type": "Torrefazione",
			"city": "Candelù (TV)",
			"lat": "45.73220140097297",
			"lon": "12.381955199389473",
			"name": "Caffettin",
			"website": "www.caffettin.it",
			"type": "1"
	},
{ 
			"id": "209",
			"address": "Località torre del parco (MC)",
			"shop_type": "Torrefazione",
			"city": "Macerata (MC)",
			"lat": "43.193081995529276",
			"lon": "13.0529853972258",
			"name": "Artieri Coffee",
			"website": "https://artiericoffee.com/it/collections/espresso",
			"type": "1"
	},
{ 
			"id": "211",
			"address": "Viale Tica, 141, 96100 (SR)",
			"shop_type": "Torrefazione",
			"city": "Siracusa (SR)",
			"lat": "37.08369589079715",
			"lon": "15.286166190327572",
			"name": "Fiume Torrefazione",
			"website": "https://www.fiumecaffe.com/10-fiume-monorigini",
			"type": "1"
	},
{ 
			"id": "212",
			"address": "Via Mazzini, 146N, 40138 (BO)",
			"shop_type": "Caffetteria",
			"city": "Bologna (BO)",
			"lat": "44.486321403092774",
			"lon": "11.367943493000537",
			"name": "Delledue",
			"website": "https://www.delledue.it/",
			"type": "0"
	},
{ 
			"id": "213",
			"address": "Piazza del Popolo, 68, 63900 Fermo (FM)",
			"shop_type": "Gelateria & Coffee",
			"city": "Fermo (FM)",
			"lat": "43.1619969739551",
			"lon": "13.718723812796323",
			"name": "La Veneta",
			"website": "https://www.tripadvisor.it/Restaurant_Review-g1025201-d8026202-Reviews-Gelateria_Veneta-Fermo_Province_of_Fermo_Marche.html",
			"type": "0"
	},
{ 
			"id": "138",
			"address": "Via Giglio Padovan, 4 (TS)",
			"shop_type": "Torrefazione",
			"city": "Trieste (TS)",
			"lat": "45.642023007042894",
			"lon": "13.788604350680297",
			"name": "Guatemala Torrefattori Trieste",
			"website": "https://www.caffeguatemala.com/shop",
			"type": "1"
	},
{ 
			"id": "214",
			"address": "Corso XI Settembre, 15",
			"shop_type": "Caffetteria",
			"city": "Pesaro (PU)",
			"lat": "43.91062951780686",
			"lon": "12.913037248260723",
			"name": "Caffè Barrier",
			"website": "hhttp://www.caffebarrier.com/",
			"type": "0"
	},
{ 
			"id": "215",
			"address": "via Calice, 52",
			"shop_type": "Torrefazione",
			"city": "Finale Ligure (SV)",
			"lat": "43.91062951780686",
			"lon": "12.913037248260723",
			"name": "Giovannacci Caffè",
			"website": "https://giovannaccicaffe.it/monoorigini",
			"type": "1"
	},
{ 
			"id": "216",
			"address": "Via Ameglia, 114",
			"shop_type": "Torrefazione",
			"city": "Arcola (SP)",
			"lat": "44.094877755331595",
			"lon": "9.940701418380879",
			"name": "Crastan Caffè",
			"website": "https://www.noteamare.com/collections/all/specialty",
			"type": "1"
	},
{ 
			"id": "217",
			"address": "Via Della Vecchia Casina, 7",
			"shop_type": "Torrefazione",
			"city": "Livorno (LI)",
			"lat": "43.546710444416064",
			"lon": "10.306568929852824",
			"name": "Earthspresso",
			"website": "https://www.earthspresso.com/collections/all",
			"type": "1"
	},
{ 
			"id": "218",
			"address": "Viale Regina Elena, 14",
			"shop_type": "Caffetteria e Torrefazione",
			"city": "Camucia (AR)",
			"lat": "43.26243885497308",
			"lon": "11.976821364010835",
			"name": "Vannelli Coffee",
			"website": "https://vannelli.coffee/it/",
			"type": "0,1"
	},
{ 
			"id": "219",
			"address": "Via Lago di Pusiano, 20",
			"shop_type": "Torrefazione",
			"city": "Schio (VI)",
			"lat": "45.71537553708466",
			"lon": "11.407624212881231",
			"name": "Carraro 1927",
			"website": "https://carraro1927.com/",
			"type": "1"
	},
{ 
			"id": "220",
			"address": "Via Laura Ciceri Visconti, 4 (MI)",
			"shop_type": "Torrefazione",
			"city": "Milano (MI)",
			"lat": "45.45519230238584",
			"lon": "9.2203316416049",
			"name": "Carnera",
			"website": "https://www.caffecarnera.com/",
			"type": "1"
	},
{ 
			"id": "221",
			"address": "Via Laura Ciceri Visconti, 4 (MI)",
			"shop_type": "Torrefazione",
			"city": "Roma (Roma)",
			"lat": "",
			"lon": "",
			"name": "Blue Roastery",
			"website": "https://www.instagram.com/blue_roastery/",
			"type": "1"
	},
{ 
			"id": "222",
			"address": "Via G. Puccini, 50/f",
			"shop_type": "Caffetteria",
			"city": "Imola (BO)",
			"lat": "44.34568193066398",
			"lon": "11.685608607281289",
			"name": "Mamma Mia Caffè",
			"website": "https://www.instagram.com/mammamiacafeimola/",
			"type": "0"
	},
{ 
			"id": "223",
			"address": "Via Michelangelo, 178",
			"shop_type": "Caffetteria",
			"city": "Aversa (CE)",
			"lat": "40.96733685224141",
			"lon": "14.198554777002611",
			"name": "Alleria Bar",
			"website": "https://www.instagram.com/alleria.aversa/",
			"type": "0"
	},
{ 
			"id": "224",
			"address": "Via Valle Corteno, 58",
			"shop_type": "Torrefazione",
			"city": "Roma (Roma)",
			"lat": "41.93647581368443",
			"lon": "12.52910071043799",
			"name": "Aliena Coffee Roasters",
			"website": "https://aliena.space/",
			"type": "1"
	},
{ 
			"id": "225",
			"address": "Via Romeo 21/23",
			"shop_type": "Caffetteria",
			"city": "Acireale (CT)",
			"lat": "37.612796953167724",
			"lon": "15.167133053102656",
			"name": "Sketch Urban Art Café",
			"website": "https://www.instagram.com/sketchurbanartcafe/",
			"type": "0"
	},
{ 
			"id": "226",
			"address": "Piazza Luigi da Porto, 2",
			"shop_type": "Caffetteria",
			"city": "Padova (PD)",
			"lat": "45.41097545833049",
			"lon": "11.901925103138504",
			"name": "Caffetteria al porto",
			"website": "https://www.instagram.com/caffetteriaalporto/",
			"type": "0"
	},
{ 
			"id": "227",
			"address": "Via Cavallotti, 29",
			"shop_type": "Caffetteria",
			"city": "Luino (VA)",
			"lat": "46.00331363334223",
			"lon": "8.744050429052349",
			"name": "The Blend Post al Bistro",
			"website": "https://www.instagram.com/theblendpost/?hl=it",
			"type": "0"
	},
{ 
			"id": "228",
			"address": "-",
			"shop_type": "Torrefazione",
			"city": "Roma (Roma)",
			"lat": "-",
			"lon": "-",
			"name": "Wet Caffè",
			"website": "https://www.wetcaffe.it/",
			"type": "1"
	},
{ 
			"id": "229",
			"address": "Via Defendente Sacchi, 21",
			"shop_type": "Caffetteria",
			"city": "Pavia (PV)",
			"lat": "45.18690508788236",
			"lon": "9.159370995764267",
			"name": "Il Voltino",
			"website": "https://www.instagram.com/voltinocaffe/?hl=it",
			"type": "0"
	},
{ 
			"id": "230",
			"address": "Vicolo dell’Arco, 1 A/B",
			"shop_type": "Caffetteria",
			"city": "Alba (CN)",
			"lat": "44.70026411318158",
			"lon": "8.03587073429946",
			"name": "Monviso Italian Coffee Factory",
			"website": "https://www.instagram.com/monvisocoffee/",
			"type": "0"
	},
{ 
			"id": "231",
			"address": "Via Felice Orsini, 16/A",
			"shop_type": "Caffetteria",
			"city": "Imola (BO)",
			"lat": "44.35525207695425",
			"lon": "11.71379383196434",
			"name": "Bar ai Giardini Imola",
			"website": "https://www.instagram.com/bar_ai_giardini_imola/",
			"type": "0"
	},
{ 
			"id": "232",
			"address": "Via Francesco Dolzino, 121",
			"shop_type": "Torrefazione/Caffetteria",
			"city": "Chiavenna (SO)",
			"lat": "46.32224337563451",
			"lon": "9.404812705496655",
			"name": "Sierra Nevada Caffè",
			"website": "https://www.instagram.com/sierranevada_caffe/",
			"type": "0,1"
	},
{ 
			"id": "233",
			"address": "Via Claudio Luigi Berthollet, 30",
			"shop_type": "Gelateria/Caffetteria",
			"city": "Torino (TO)",
			"lat": "45.05868516688033",
			"lon": "7.685969601024485",
			"name": "Mara dei Boschi",
			"website": "https://www.maradeiboschi.it/",
			"type": "0"
	},
{ 
			"id": "234",
			"address": "Piazza Carlo Emanuele II, 21",
			"shop_type": "Gelateria/Caffetteria",
			"city": "Torino (TO)",
			"lat": "45.067616948366584",
			"lon": "7.691977592681626",
			"name": "Mara dei Boschi",
			"website": "https://www.maradeiboschi.it/",
			"type": "0"
	},
{ 
			"id": "235",
			"address": "Corso Alcide De Gasperi, 57",
			"shop_type": "Gelateria/Caffetteria",
			"city": "Torino (TO)",
			"lat": "45.05460275676446",
			"lon": "7.660907692669371",
			"name": "Mara dei Boschi",
			"website": "https://www.maradeiboschi.it/",
			"type": "0"
	},
{ 
			"id": "236",
			"address": "Vicolo S. Giovanni, 1",
			"shop_type": "Torrefazione/Caffetteria",
			"city": "Barolo (CN)",
			"lat": "44.610524833095546",
			"lon": "7.941411896054275",
			"name": "Ialty",
			"website": "https://www.ialty.it/",
			"type": "0,1"
	},
{ 
			"id": "237",
			"address": "Viale XXV Aprile, 6",
			"shop_type": "Caffetteria/Pasticceria",
			"city": "Fermo (FM)",
			"lat": "43.15928806071607",
			"lon": "13.707261113214006",
			"name": "Mon Plasir",
			"website": "https://www.facebook.com/pasticceriamonplaisir/",
			"type": "0"
	},
{ 
			"id": "238",
			"address": "Via Enzo Biagi, 3/5",
			"shop_type": "Caffetteria/Torrefazione",
			"city": "Palermo (PA)",
			"lat": "38.162104460382636",
			"lon": "13.320249802364149",
			"name": "Caffè Morettino",
			"website": "https://morettino.com/",
			"type": "0,1"
	},
{ 
			"id": "239",
			"address": "Via Roma, 116",
			"shop_type": "Torrefazione",
			"city": "Alba Adriatica (TE)",
			"lat": "42.83282683989659",
			"lon": "13.922361571527963",
			"name": "Francaffè",
			"website": "https://francaffe.com/it/",
			"type": "1"
	},
{ 
			"id": "240",
			"address": "via giovanni da empoli, 37",
			"shop_type": "Ristorante/Torrefazione/Panificio",
			"city": "Roma (Roma)",
			"lat": "41.87337437803589",
			"lon": "12.47878422862642",
			"name": "Chicchi by Marigold",
			"website": "https://chicchibymarigold.com/pages/contact",
			"type": "0,1"
	},
{ 
			"id": "241",
			"address": "SP20, 41",
			"shop_type": "",
			"city": "Poviglio RE",
			"lat": "44.86166176846683",
			"lon": "10.51885310683982",
			"name": "Naked Coffee Roasters",
			"website": "https://www.facebook.com/nakedcoffeeroaster/?ref=settings",
			"type": "1"
	},
{ 
			"id": "242",
			"address": "Via XXV Aprile, 25",
			"shop_type": "Pasticceria/Torrefazione",
			"city": "Sorbolo Mezzani (PR)",
			"lat": "44.868989214439694",
			"lon": "10.530220047196625",
			"name": "Da Teo",
			"website": "https://www.facebook.com/Da-Teo-Pasticceria-Torrefazione-202602053113484/",
			"type": "0"
	},
{ 
			"id": "243",
			"address": "Via Sant'Isaia, 57/D",
			"shop_type": "Caffetteria",
			"city": "Bologna (BO)",
			"lat": "44.494506599930006",
			"lon": "11.331102074547955",
			"name": "Burō",
			"website": "https://www.burocafe.it/",
			"type": "0"
	},
{ 
			"id": "244",
			"address": "Via Gianforma Margione, 46",
			"shop_type": "Pasticceria/Torrefazione",
			"city": "Modica (RG)",
			"lat": "36.9244213802109",
			"lon": "14.831258216068349",
			"name": "Kaffa Street Bar",
			"website": "https://www.facebook.com/Kaffa.StreetBar/menu/?ref=page_internal",
			"type": "0,1"
	},
{ 
			"id": "118",
			"address": "Lungarno Soderini, 7R",
			"shop_type": "Caffetteria",
			"city": "Firenze (FI)",
			"lat": "43.7699327587197",
			"lon": "11.246464061808098",
			"name": "Ditta Artigianale Riva d'Arno",
			"website": "https://dittaartigianale.com/",
			"type": "0"
	},
{ 
			"id": "245",
			"address": "Borgo la Croce, 59r",
			"shop_type": "Caffetteria",
			"city": "Firenze (FI)",
			"lat": "43.77119408701836",
			"lon": "11.268341680878187",
			"name": "FLUID - Specialty Coffee & Sharing",
			"website": "https://fluidspecialty.com/home",
			"type": "0"
	},
{ 
			"id": "246",
			"address": "Via Nizza, 16",
			"shop_type": "Caffetteria",
			"city": "Verona (VR)",
			"lat": "45.442569341956194",
			"lon": "11.000717678329607",
			"name": "Nizza Café",
			"website": "https://nizza-cafe.business.site/",
			"type": "0"
	},
{ 
			"id": "247",
			"address": "Vicolo San Silvestro, 29",
			"shop_type": "Caffetteria",
			"city": "Verona (VR)",
			"lat": "45.438786711048756",
			"lon": "10.987082923841001",
			"name": "Garage Coffee Bros. - Flagship Store",
			"website": "https://garagecoffeebros.com/",
			"type": "0"
	},
{ 
			"id": "248",
			"address": "Via Giuseppe Sapeto, 3",
			"shop_type": "Caffetteria",
			"city": "Milano (MI)",
			"lat": "45.45862948857928",
			"lon": "9.177039208955119",
			"name": "Hygge Milano",
			"website": "http://www.hyggecorner.com/",
			"type": "0"
	},
{ 
			"id": "249",
			"address": "Via Garibaldi, 72",
			"shop_type": "Caffetteria",
			"city": "Foligno (PG)",
			"lat": "42.9568438770657",
			"lon": "12.705934670018669",
			"name": "Kuro",
			"website": "https://www.instagram.com/kuro_specialtycoffee/?hl=it",
			"type": "0"
	},
{ 
			"id": "250",
			"address": "Via Massimiliano Kolbe, 37/d",
			"shop_type": "Caffetteria",
			"city": "Desenzano del Garda (BS)",
			"lat": "45.47390057747911",
			"lon": "10.531293701570355",
			"name": "Hub Coffee Lab",
			"website": "https://www.hubcoffeelab.com/",
			"type": "0"
	},
{ 
			"id": "251",
			"address": "Vicolo San Silvestro, 29",
			"shop_type": "Caffetteria",
			"city": "Verona (VR)",
			"lat": "45.43892689738994",
			"lon": "10.987985748867636",
			"name": "Garage Coffee Bros. - Flagship Store",
			"website": "https://garagecoffeebros.com/pages/flagship-verona",
			"type": "1,0"
	},
{ 
			"id": "252",
			"address": "Via Luigi Einaudi, 18",
			"shop_type": "Caffetteria",
			"city": "Arcireale (CT)",
			"lat": "37.61866064633705",
			"lon": "15.161392582794964",
			"name": "Caffeina coffee lab",
			"website": "https://www.caffeinalab18.com/",
			"type": "0"
	},
{ 
			"id": "253",
			"address": "Via della Giuliana, 33",
			"shop_type": "Caffetteria",
			"city": "Roma (Roma)",
			"lat": "41.91175034610263",
			"lon": "12.454749333978985",
			"name": "MAE Café et cuisine",
			"website": "",
			"type": "0"
	},
{ 
			"id": "254",
			"address": "Viale Premuda, 14",
			"shop_type": "Caffetteria/Torrefazione",
			"city": "Milano (MI)",
			"lat": "45.46489521062482",
			"lon": "9.208650955301367",
			"name": "Cafezal Coffee Hub",
			"website": "http://www.cafezal.it/",
			"type": "0,1"
	},
{ 
			"id": "255",
			"address": "Via Torrearsa, 115",
			"shop_type": "Caffetteria",
			"city": "Trapani (TP)",
			"lat": "38.01741497669876",
			"lon": "12.509517545838994",
			"name": "BrigBar Trapani",
			"website": "https://brigantes.eu/",
			"type": "0"
	},
{ 
			"id": "256",
			"address": "Via Madonna di Mezzopiano 25/GH",
			"shop_type": "Caffetteria",
			"city": "Gubbio (PG)",
			"lat": "43.35434990982115",
			"lon": "12.568544099310323",
			"name": "Viate",
			"website": "https://www.vitaecoffeeandmore.com/",
			"type": "0"
	},
{ 
			"id": "257",
			"address": "Via XX Settembre, 75",
			"shop_type": "Caffetteria",
			"city": "Genova (GE)",
			"lat": "44.40582219539213",
			"lon": "8.942349210719307",
			"name": "Ops... Coffee by Mistake",
			"website": "https://moggenova.it/le-cucine/ops-coffee-by-mistakes/",
			"type": "0"
	},
{ 
			"id": "258",
			"address": "Via Roma, 178",
			"shop_type": "Caffetteria",
			"city": "Ravenna (RA)",
			"lat": "44.418907520320566",
			"lon": "12.20361284849822",
			"name": "Grinder Coffee Lab",
			"website": "https://www.grindercoffeelab.com/",
			"type": "0"
	},
{ 
			"id": "259",
			"address": "Via A. Gramsci, 34",
			"shop_type": "Torrefazione",
			"city": "Papozze (RO)",
			"lat": "44.98890201523985",
			"lon": "12.031527656587599",
			"name": "Coffeeriff",
			"website": "https://coffeeriff.com/",
			"type": "1"
	},
{ 
			"id": "260",
			"address": "Via Ferrara, 2",
			"shop_type": "Caffetteria",
			"city": "Alessandria (AL)",
			"lat": "44.91393685119187",
			"lon": "8.616569265346767",
			"name": "Fanciot",
			"website": "https://linktr.ee/fanciot",
			"type": "0"
	},
{ 
			"id": "261",
			"address": "Via Francesco Valori, 4r",
			"shop_type": "Caffetteria",
			"city": "Firenze (FI)",
			"lat": "43.7817132653231",
			"lon": "11.265732533203455",
			"name": "Fancy",
			"website": "https://www.canva.com/design/DAFKyFbjMVM/TV05JLTni0j2wWO5R60KBQ/view?website#2",
			"type": "0"
	},
{ 
			"id": "262",
			"address": "Via Eugenio Curiel, 12",
			"shop_type": "Caffetteria",
			"city": "Mirandola (MO)",
			"lat": "44.89028053858306",
			"lon": "11.068153899142025",
			"name": "Biofficina Mirandola",
			"website": "https://www.biofficinamirandola.it/",
			"type": "0"
	},
{ 
			"id": "263",
			"address": "Corso Umberto I, 173",
			"shop_type": "Caffetteria",
			"city": "Modica (RG)",
			"lat": "36.860724477999725",
			"lon": "14.760034060616704",
			"name": "Martin Cafè",
			"website": "https://www.menudigitale.io/wzkfv",
			"type": "0"
	},
{ 
			"id": "264",
			"address": "Via A Volta, 16",
			"shop_type": "Caffetteria",
			"city": "Milano (MI)",
			"lat": "45.48023079532435",
			"lon": "9.184047714753858",
			"name": "The Pure Café",
			"website": "https://www.thepurecafe.it/it",
			"type": "0"
	},
{ 
			"id": "265",
			"address": "Via Luigi Santini, 22 (Roma)",
			"shop_type": "Pasticceria",
			"city": "Roma (Roma)",
			"lat": "41.887167240828994",
			"lon": "12.46951513183244",
			"name": "Le Levain",
			"website": "http://www.lelevainroma.it/",
			"type": "0"
	},
{ 
			"id": "266",
			"address": "Viale dei Colli Portuensi, 596 (Roma)",
			"shop_type": "Caffetteria, forno",
			"city": "Roma (Roma)",
			"lat": "41.86418572672644",
			"lon": "12.44217319302536",
			"name": "Giuffrè - Forno & Gelato",
			"website": "https://www.gelateriagiuffre.it/",
			"type": "0"
	},
{ 
			"id": "267",
			"address": "Piazza Tarquinia, 4 a/b (Roma)",
			"shop_type": "Pizzeria",
			"city": "Roma (Roma)",
			"lat": "41.88144253429387",
			"lon": "12.510059657493622",
			"name": "SantoPalato",
			"website": "https://santopalato.superbexperience.com/",
			"type": "0"
	},
{ 
			"id": "268",
			"address": "Via Genazzano, 32 (Roma)",
			"shop_type": "Pizzeria",
			"city": "Roma (Roma)",
			"lat": "41.89360962057551",
			"lon": "12.556654479041464",
			"name": "180gr",
			"website": "https://180gpizzeriaromana.com/",
			"type": "0"
	}


	],
	"ratio": [
	 	{
			"deletable": "0",
			"ratio": "60",
			"title": "Base"
		}
	]
}